{
  "title": "McDonald's",
  "subTitle": null,
  "price": "$",
  "menu": null,
  "categoryName": "Fast food restaurant",
  "address": "850 University Blvd, Rexburg, ID 83440",
  "locatedIn": null,
  "neighborhood": "850 University Blvd",
  "street": "850 University Blvd",
  "city": "Rexburg",
  "postalCode": "83440",
  "state": "Idaho",
  "countryCode": "US",
  "plusCode": "R53R+JQ Rexburg, Idaho",
  "website": "https://www.mcdonalds.com/us/en-us/location/ID/REXBURG/850-UNIVERSITY-BLVD/36056.html?cid=RF:YXT:GMB::Clicks",
  "phone": "(208) 356-6141",
  "temporarilyClosed": false,
  "location": {
    "lat": 43.8040888,
    "lng": -111.8080913
  },
  "permanentlyClosed": false,
  "totalScore": 3.9,
  "isAdvertisement": false,
  "rank": 1,
  "placeId": "ChIJi5oDym8LVFMROkkdjIEd7iU",
  "categories": [
    "Fast food restaurant",
    "Breakfast restaurant",
    "Coffee shop",
    "Hamburger restaurant",
    "Restaurant",
    "Sandwich shop"
  ],
  "cid": "2733154466099185978",
  "url": "https://www.google.com/maps/place/McDonald's/@43.8040888,-111.8080913,17z/data=!3m1!4b1!4m5!3m4!1s0x53540b6fca039a8b:0x25ee1d818c1d493a!8m2!3d43.8040888!4d-111.8080913?hl=en",
  "searchPageUrl": "https://www.google.com/maps/search/mcdonalds/@43.8189275,-111.7933371,14z?hl=en",
  "searchString": "mcdonalds",
  "scrapedAt": "2022-10-08T00:46:54.516Z",
  "openingHours": [
    {
      "day": "Friday,",
      "hours": "Open 24 hours"
    },
    {
      "day": "Saturday,",
      "hours": "Open 24 hours"
    },
    {
      "day": "Sunday,",
      "hours": "Open 24 hours"
    },
    {
      "day": "Monday,",
      "hours": "Open 24 hours"
    },
    {
      "day": "Tuesday,",
      "hours": "Open 24 hours"
    },
    {
      "day": "Wednesday,",
      "hours": "Open 24 hours"
    },
    {
      "day": "Thursday,",
      "hours": "Open 24 hours"
    }
  ],
  "reviewsCount": 1345,
  "reviewsDistribution": {
    "oneStar": 120,
    "twoStar": 69,
    "threeStar": 239,
    "fourStar": 339,
    "fiveStar": 578
  },
  "reviews": [],
  "orderBy": [
    {
      "name": "DoorDash",
      "url": "doordash.com",
      "orderUrl": "https://www.doordash.com/store/mcdonald%27s-rexburg-694994/?utm_campaign=gpa"
    },
    {
      "name": "UberEats",
      "url": "ubereats.com",
      "orderUrl": "https://www.ubereats.com/store/mcdonalds-850-university-blvd/5M3CHIA4TByVA2iVLDs5KQ/?utm_campaign=place-action-link&utm_medium=organic&utm_source=google"
    },
    {
      "name": "Postmates",
      "url": "postmates.com",
      "orderUrl": "https://www.postmates.com/store/mcdonalds-850-university-blvd/5M3CHIA4TByVA2iVLDs5KQ/?utm_campaign=place-action-link&utm_medium=organic&utm_source=google"
    },
    {
      "name": "smart.link",
      "url": "smart.link",
      "orderUrl": "https://mcdonalds.smart.link/mjuu1ggdi"
    }
  ]
}